City,Country,Date,Max Temp,Humidity,Cloudiness,Wind Speed,Lat,Lng
Busselton,AU,1587418253,15.0,68,18,4.69,-33.65,115.33
Ushuaia,AR,1587417835,6.0,87,75,18.5,-54.8,-68.3
Vanimo,PG,1587418534,26.28,82,99,3.01,-2.67,141.3
Turaif,SA,1587418535,20.0,37,0,4.1,31.67,38.66
Kavieng,PG,1587418535,29.02,71,73,0.24,-2.57,150.8
Gawler,AU,1587418535,12.78,75,5,0.89,-34.6,138.73
Yellowknife,CA,1587418536,-6.0,53,75,6.2,62.46,-114.35
Apaţa,RO,1587418536,6.67,49,77,2.68,45.95,25.52
Tazovsky,RU,1587418536,0.74,97,100,5.12,67.47,78.7
Tiksi,RU,1587418537,-6.93,94,95,1.73,71.69,128.87
Asău,RO,1587418537,4.0,55,12,2.6,46.43,26.4
Hyères,FR,1587418537,15.0,93,90,4.1,43.12,6.12
Bluff,NZ,1587418264,7.22,96,78,0.89,-46.6,168.33
Fairbanks,US,1587418289,5.56,93,90,1.5,64.84,-147.72
Carnarvon,AU,1587418510,20.0,56,75,6.2,-24.87,113.63
Port Harcourt,NG,1587418538,26.89,82,14,3.2,4.78,7.01
Punta Arenas,CL,1587418261,9.0,76,40,14.9,-53.15,-70.92
Marawi,PH,1587418539,20.1,74,0,1.52,8.0,124.29
Mar del Plata,AR,1587418522,20.56,68,100,4.1,-38.0,-57.56
Raahe,FI,1587418539,3.0,64,28,3.6,64.68,24.48
Waddān,LY,1587418539,26.55,15,0,4.89,29.16,16.14
Rikitea,PF,1587418510,24.47,74,29,2.13,-23.12,-134.97
New Norfolk,AU,1587418540,9.44,86,23,1.93,-42.78,147.06
Riachão das Neves,BR,1587418540,23.24,78,46,1.24,-11.75,-44.91
Khatanga,RU,1587418535,-5.19,95,100,2.35,71.97,102.5
Hilo,US,1587418268,27.0,57,40,7.2,19.73,-155.09
Inírida,CO,1587418541,28.08,77,24,1.72,3.87,-67.92
Tual,ID,1587418541,28.62,74,4,3.23,-5.67,132.75
Benxi,CN,1587418542,1.0,47,0,6.0,41.29,123.77
Arraial do Cabo,BR,1587418520,23.0,83,1,2.6,-22.97,-42.03
Vaini,TO,1587418524,28.0,78,75,4.1,-21.2,-175.2
Puerto Suárez,BO,1587418543,33.0,46,40,3.1,-18.95,-57.8
São Francisco,BR,1587418544,22.38,77,32,1.36,-15.95,-44.86
Kuminskiy,RU,1587418545,6.62,79,100,2.77,58.67,66.57
Touros,BR,1587418545,27.0,83,40,4.6,-5.2,-35.46
Ponta do Sol,PT,1587418546,17.0,51,20,3.6,32.67,-17.1
Albany,US,1587418257,11.67,27,75,3.1,42.6,-73.97
Nikolskoye,RU,1587418546,5.56,75,75,2.0,59.7,30.79
Hammond,US,1587418546,18.0,36,75,8.7,41.58,-87.5
Abu Samrah,SY,1587418546,19.68,41,16,1.37,35.3,37.18
Kodinsk,RU,1587418546,-4.08,91,48,1.34,58.69,99.18
Cape Town,ZA,1587417937,15.56,93,75,1.0,-33.93,18.42
Cayenne,GF,1587418267,23.0,100,75,1.25,4.93,-52.33
Caldas da Rainha,PT,1587418284,13.33,81,32,1.79,39.4,-9.14
Hasaki,JP,1587418338,11.11,93,75,0.5,35.73,140.83
Alofi,NU,1587418547,28.0,69,40,5.7,-19.06,-169.92
Bredasdorp,ZA,1587418445,17.0,63,100,1.0,-34.53,20.04
Fukuechō,JP,1587418548,14.21,52,100,9.61,32.69,128.84
Puerto Ayora,EC,1587418548,30.0,66,75,8.7,-0.74,-90.35
Callaway,US,1587418548,25.0,64,1,7.2,30.15,-85.57
Goderich,CA,1587418381,10.0,47,63,9.63,43.75,-81.72
Tuktoyaktuk,CA,1587418520,-14.0,84,90,4.6,69.45,-133.04
Erdenet,MN,1587418549,-6.67,59,0,1.48,49.03,104.08
Nueve de Julio,AR,1587418550,22.78,68,0,0.92,-35.44,-60.88
Anadyr,RU,1587418536,-11.0,78,18,2.0,64.75,177.48
Jiuquan,CN,1587418550,5.73,26,99,1.0,39.74,98.52
Tezu,IN,1587418551,18.98,63,87,1.65,27.92,96.17
Centralia,US,1587418551,18.0,52,75,1.42,46.72,-122.95
Khāpa,IN,1587418552,28.0,48,40,1.0,21.43,78.97
Denpasar,ID,1587418218,26.0,100,40,1.0,-8.65,115.22
Lagoa,PT,1587418288,15.28,67,95,6.34,39.05,-27.98
San Patricio,MX,1587418553,30.0,74,5,5.1,19.22,-104.7
Sangar,RU,1587418553,-10.83,93,0,0.39,63.92,127.47
Atuona,PF,1587418521,28.2,71,3,5.75,-9.8,-139.03
Torbay,CA,1587418292,5.0,64,40,16.5,47.67,-52.73
Esperance,AU,1587418333,13.0,82,9,4.1,-33.87,121.9
Dikson,RU,1587418554,-0.51,97,100,10.12,73.51,80.55
Mataura,NZ,1587418554,7.22,96,89,0.89,-46.19,168.86
Collierville,US,1587418554,23.89,43,20,4.6,35.04,-89.66
Mossamedes,AO,1587418551,24.11,71,23,1.92,-15.2,12.15
Hermanus,ZA,1587418313,13.33,99,100,3.81,-34.42,19.23
Jamestown,US,1587418556,10.56,39,1,4.6,42.1,-79.24
Iqaluit,CA,1587418526,-16.0,65,75,8.2,63.75,-68.51
Pāsighāt,IN,1587418556,18.78,73,90,1.46,28.07,95.33
Sterling,US,1587418544,17.78,44,75,1.5,39.01,-77.43
Mitsamiouli,KM,1587418556,28.38,69,10,1.11,-11.38,43.28
Yerbogachën,RU,1587418378,-4.79,93,3,1.89,61.28,108.01
Rairangpur,IN,1587418557,26.58,62,100,1.19,22.27,86.18
Upernavik,GL,1587418536,-0.86,90,99,3.29,72.79,-56.15
Araouane,ML,1587418557,28.06,13,0,3.83,18.9,-3.53
Ulundi,ZA,1587418557,15.92,67,0,1.82,-28.34,31.42
Saint-Philippe,RE,1587418558,23.0,69,66,4.6,-21.36,55.77
Lüderitz,NA,1587418558,18.0,72,0,3.6,-26.65,15.16
Waterloo,CA,1587418372,10.0,37,20,5.1,43.47,-80.52
Vanavara,RU,1587418558,-4.03,92,0,1.03,60.34,102.28
Hobart,AU,1587418423,10.0,76,75,2.6,-42.88,147.33
Tautira,PF,1587418560,31.0,58,47,1.5,-17.73,-149.15
Manadhoo,MV,1587418560,30.0,69,100,3.07,5.77,73.38
Hualmay,PE,1587418542,23.9,65,10,4.13,-11.1,-77.61
Saint Paul Harbor,US,1587418250,7.0,93,90,3.1,57.79,-152.41
Margate,GB,1587418561,12.22,72,2,12.99,51.38,1.39
Bubaque,GW,1587418550,25.65,72,0,6.16,11.28,-15.83
East London,ZA,1587418400,22.6,71,90,6.12,-33.02,27.91
Sørland,NO,1587418552,5.03,89,95,6.85,67.67,12.69
Airai,TL,1587418353,16.05,71,71,1.34,-8.93,125.41
Geraldton,AU,1587418527,12.0,87,1,4.1,-28.77,114.6
Avarua,CK,1587418564,29.0,74,4,5.1,-21.21,-159.78
Castro,BR,1587418564,16.49,54,2,0.95,-24.79,-50.01
Katsuura,JP,1587418566,12.22,93,75,1.0,35.13,140.3
Bethel,US,1587418566,13.33,34,1,1.97,41.37,-73.41
Eyl,SO,1587418566,28.77,78,29,6.01,7.98,49.82
Trujillo,PE,1587418566,21.0,88,20,5.7,-8.12,-79.03
Zyryanka,RU,1587418566,-9.35,88,98,1.8,65.75,150.85
Airdrie,GB,1587418529,7.78,81,0,7.2,55.87,-3.98
Vao,NC,1587418567,24.5,79,34,5.59,-22.67,167.48
Pangkalanbuun,ID,1587418567,24.98,90,34,1.18,-2.68,111.62
Am Timan,TD,1587418567,30.07,12,63,1.97,11.03,20.28
Lebu,CL,1587418557,14.88,63,43,7.65,-37.62,-73.65
Jining,CN,1587418568,8.3,47,24,5.38,35.41,116.58
Lubao,PH,1587418569,27.0,88,40,1.0,14.92,120.55
Qaanaaq,GL,1587418522,-11.93,85,52,2.97,77.48,-69.36
Māngrol,IN,1587418569,25.71,80,0,4.34,21.12,70.12
Ilulissat,GL,1587418311,-1.0,68,42,1.5,69.22,-51.1
Vila Franca do Campo,PT,1587418569,15.0,67,20,2.1,37.72,-25.43
Benguela,AO,1587418570,26.08,84,35,1.2,-12.58,13.41
Itororó,BR,1587418570,22.01,84,98,0.96,-15.12,-40.07
Kieta,PG,1587418570,27.49,74,25,1.0,-6.22,155.63
Topolobampo,MX,1587418570,32.22,25,20,4.1,25.6,-109.05
Calama,CL,1587418278,24.0,13,0,8.7,-22.47,-68.93
Dunedin,NZ,1587418487,9.69,65,87,2.34,-45.87,170.5
Kapaa,US,1587418522,27.0,69,40,5.1,22.08,-159.32
Saskylakh,RU,1587418275,-4.07,98,70,5.12,71.92,114.08
Chifeng,CN,1587418572,-2.51,58,0,12.78,42.27,118.96
Pampas,PE,1587418572,15.5,18,34,3.28,-12.4,-74.9
Fondi,IT,1587418572,16.67,81,100,1.79,41.35,13.43
Oranjemund,NA,1587418568,15.59,86,15,3.03,-28.55,16.43
Gari,RU,1587418573,5.75,83,100,2.92,59.43,62.35
Port Alfred,ZA,1587418573,18.33,88,36,1.34,-33.59,26.89
Lang Son,VN,1587418573,22.77,86,73,0.99,21.83,106.73
Rāwah,IQ,1587418573,24.08,29,2,2.47,34.48,41.91
Paamiut,GL,1587418574,-1.75,89,37,2.75,61.99,-49.67
Mahébourg,MU,1587418330,24.0,88,75,5.7,-20.41,57.7
Quatre Cocos,MU,1587418575,24.0,88,75,5.7,-20.21,57.76
São João da Barra,BR,1587418575,24.0,69,1,3.1,-21.64,-41.05
Marsá Maţrūḩ,EG,1587418575,17.0,72,100,4.1,31.35,27.25
Kathu,TH,1587418576,27.0,88,20,4.53,7.92,98.33
Naze,JP,1587418297,19.0,72,70,3.6,28.37,129.48
George Town,MY,1587418306,27.0,100,20,1.5,5.41,100.34
Butaritari,KI,1587418576,28.02,79,100,5.88,3.07,172.79
Irbeyskoye,RU,1587418577,1.06,72,100,2.69,55.64,95.45
Kununurra,AU,1587418561,23.0,94,46,0.8,-15.77,128.73
Kochi,IN,1587418577,27.0,94,40,0.5,9.94,76.26
Havelock,US,1587418329,15.56,77,90,6.2,34.88,-76.9
Tasiilaq,GL,1587418578,1.0,87,100,3.1,65.61,-37.64
Angoram,PG,1587418578,22.92,97,98,0.74,-4.06,144.07
Socorro,US,1587418578,27.0,12,75,7.7,31.65,-106.3
Ladário,BR,1587418578,33.0,46,40,3.1,-19.0,-57.6
Ribeira Grande,PT,1587418578,17.0,67,75,8.2,38.52,-28.7
Los Llanos de Aridane,ES,1587418576,20.0,72,75,9.3,28.66,-17.92
Laas,IT,1587418579,7.0,100,75,3.6,46.62,10.7
Taoudenni,ML,1587418412,29.06,14,0,3.73,22.68,-3.98
Takayama,JP,1587418579,13.33,76,90,1.5,36.13,137.25
Thompson,CA,1587418193,-5.0,53,75,7.7,55.74,-97.86
Hithadhoo,MV,1587418581,29.26,69,62,3.61,-0.6,73.08
Deputatsky,RU,1587418581,-10.62,91,100,2.24,69.3,139.9
Lora del Río,ES,1587418582,12.22,93,95,3.1,37.66,-5.53
Aginskoye,RU,1587418582,-7.28,72,100,6.29,51.1,114.53
Esmeraldas,BR,1587418511,23.0,60,40,2.1,-19.76,-44.31
Talnakh,RU,1587418565,0.0,92,90,8.0,69.49,88.4
Étampes,FR,1587418583,16.67,46,94,0.45,48.43,2.15
Morondava,MG,1587418584,25.72,72,0,1.88,-20.28,44.28
Pisco,PE,1587418372,24.0,64,0,9.3,-13.7,-76.22
Tura,IN,1587418330,20.99,78,100,1.58,25.52,90.22
Ascension,US,1587418585,27.22,54,40,2.6,30.22,-90.9
Inuvik,CA,1587418585,-11.0,72,75,3.6,68.35,-133.72
Kharovsk,RU,1587418585,-1.52,97,0,2.05,59.96,40.19
Nishifukuma,JP,1587418586,14.44,62,75,5.1,33.77,130.47
Baker City,US,1587418586,21.0,22,1,1.5,44.77,-117.83
Kahului,US,1587418381,28.0,51,1,3.1,20.89,-156.47
Bengkulu,ID,1587418586,25.67,80,59,2.18,-3.8,102.27
Charters Towers,AU,1587418587,20.38,85,2,2.19,-20.1,146.27
Genhe,CN,1587418587,-9.12,87,100,6.74,50.78,121.52
Oussouye,SN,1587418587,27.0,88,0,2.1,12.48,-16.55
Hay River,CA,1587418588,1.0,59,90,6.7,60.82,-115.8
Praia,CV,1587418535,22.0,73,20,8.2,14.92,-23.51
Cubulco,GT,1587418589,26.0,50,20,5.1,15.13,-90.58
Alyangula,AU,1587418590,20.0,100,75,2.25,-13.85,136.42
Görlitz,DE,1587418590,7.22,59,0,1.79,51.16,14.99
Port Elizabeth,ZA,1587418590,19.0,82,66,7.2,-33.92,25.57
Broome,US,1587418591,11.67,31,1,1.5,42.25,-75.83
Beringovskiy,RU,1587418591,-10.71,94,85,6.25,63.05,179.32
Sambava,MG,1587418591,23.01,88,93,3.6,-14.27,50.17
Vardø,NO,1587418591,2.0,74,40,10.8,70.37,31.11
Ketchikan,US,1587418592,8.0,87,90,3.1,55.34,-131.65
Mana,GF,1587418592,26.38,84,100,3.09,5.66,-53.78
Sabha,LY,1587418590,26.18,19,0,4.55,27.04,14.43
Chokurdakh,RU,1587418592,-6.89,98,100,2.88,70.63,147.92
Mount Isa,AU,1587418593,14.0,47,0,1.5,-20.73,139.5
Sitka,US,1587418538,7.0,93,90,4.6,57.05,-135.33
Mount Gambier,AU,1587418594,10.0,93,90,4.6,-37.83,140.77
Chernyshevskiy,RU,1587418594,-7.56,94,72,1.92,63.01,112.47
Kumul,CN,1587418595,13.08,22,45,2.1,42.8,93.45
Dzilam González,MX,1587418595,32.22,71,25,4.49,21.28,-88.93
Laguna,US,1587418595,21.11,52,75,3.1,38.42,-121.42
Muli,MV,1587418596,29.39,73,66,3.37,2.92,73.57
Caravelas,BR,1587418596,24.59,80,24,6.14,-17.71,-39.25
Smolenka,RU,1587418597,-9.0,43,62,5.0,52.14,113.5
Shishou,CN,1587418597,11.33,83,71,3.23,29.72,112.42
Zaterechnyy,RU,1587418597,12.15,70,100,7.93,44.79,45.21
Ponta Delgada,PT,1587418597,15.0,67,20,2.1,37.73,-25.67
Teahupoo,PF,1587418598,31.0,58,45,1.5,-17.83,-149.27
Walvis Bay,NA,1587418416,20.0,64,99,3.1,-22.96,14.51
Chui,UY,1587418598,21.42,68,0,0.4,-33.7,-53.46
Souillac,MU,1587418559,24.0,88,75,5.7,-20.52,57.52
Green Valley,US,1587418599,28.33,12,1,1.5,31.85,-110.99
Dargaville,NZ,1587418599,16.06,95,99,2.37,-35.93,173.88
Belmonte,BR,1587418599,25.0,78,40,3.1,-15.86,-38.88
Safranbolu,TR,1587418600,10.21,69,98,1.27,41.25,32.69
Ostrovnoy,RU,1587418600,0.32,93,100,8.41,68.05,39.51
São Filipe,CV,1587418540,22.59,76,2,6.57,14.9,-24.5
Gambo,CF,1587418601,22.06,82,99,0.75,4.65,22.26
Saint-Ambroise,CA,1587418601,0.0,33,20,4.1,48.55,-71.33
Leningradskiy,RU,1587418558,-12.58,90,2,2.95,69.38,178.42
Srandakan,ID,1587418601,26.48,83,98,2.65,-7.94,110.25
Jaciara,BR,1587418602,25.36,79,8,0.8,-15.97,-54.97
Vila Velha,BR,1587418314,24.44,78,75,4.6,-20.33,-40.29
Severo-Kuril'sk,RU,1587418602,0.15,93,63,2.52,50.68,156.12
Sechura,PE,1587418602,25.61,63,42,6.65,-5.56,-80.82
Waipawa,NZ,1587418602,14.44,76,80,2.1,-41.41,175.52
Teknāf,BD,1587418603,23.55,89,0,0.92,20.86,92.31
Matagami,CA,1587418604,-1.0,46,90,9.8,49.75,-77.63
Awjilah,LY,1587418604,27.03,15,0,7.77,29.11,21.29
Vestmanna,FO,1587418604,5.0,86,0,1.5,62.16,-7.17
Lorengau,PG,1587418605,28.15,74,23,1.34,-2.02,147.27
Baykit,RU,1587418605,-1.53,93,100,1.42,61.67,96.37
Sazonovo,RU,1587418605,-0.41,93,0,1.97,59.09,35.23
Vetluga,RU,1587418606,2.01,87,42,1.9,57.86,45.78
Nālūt,LY,1587418594,20.81,31,0,4.72,30.33,10.85
Wanning,CN,1587418606,25.11,90,90,4.2,18.8,110.4
Zheleznodorozhnyy,RU,1587418606,3.0,74,0,4.0,55.75,38.0
Barrow,US,1587418502,-17.0,91,90,4.1,71.29,-156.79
Gao,ML,1587418607,34.78,19,92,3.0,16.64,1.64
Esna,EG,1587418607,27.0,34,11,5.44,25.29,32.55
Berlevåg,NO,1587418371,4.0,64,75,12.9,70.86,29.09
Solnechnyy,RU,1587418607,-5.14,93,100,5.73,50.72,136.63
Guadalupe y Calvo,MX,1587418608,23.7,8,71,5.56,26.1,-106.97
Sukhothai,TH,1587418608,32.22,53,27,0.37,17.25,99.67
Port Lincoln,AU,1587418500,15.18,76,27,7.1,-34.73,135.87
Egvekinot,RU,1587418608,-12.94,89,25,3.32,66.32,-179.17
Jobabo,CU,1587418608,32.0,49,75,7.2,20.97,-76.3
Isangel,VU,1587418444,26.87,82,100,2.86,-19.55,169.27
Santa Maria da Vitória,BR,1587418609,23.4,76,31,2.01,-13.39,-44.19
North Bend,US,1587418609,13.33,76,90,3.6,43.41,-124.22
Queimadas,BR,1587418609,25.82,68,51,3.62,-10.98,-39.63
Ixtapa,MX,1587418555,26.0,69,5,5.1,20.7,-105.2
Houma,US,1587418543,28.89,51,1,2.1,29.6,-90.72
Duncan,US,1587418610,23.89,49,1,2.64,34.5,-97.96
Lydenburg,ZA,1587418545,15.0,71,0,1.37,-25.1,30.46
Mokhsogollokh,RU,1587418612,-10.86,92,0,0.97,61.47,128.92
Klaksvík,FO,1587418346,5.0,86,0,1.5,62.23,-6.59
Bakchar,RU,1587418612,7.72,84,41,1.63,57.02,82.07
Morros,BR,1587418612,25.84,69,8,1.63,-9.45,-46.3
Itaituba,BR,1587418613,32.0,59,20,2.6,-4.28,-55.98
Codrington,AU,1587418372,11.6,81,87,6.27,-38.27,141.97
Norman Wells,CA,1587418613,0.0,96,90,2.1,65.28,-126.83
Cody,US,1587418564,16.0,21,1,1.5,44.53,-109.06
Camacha,PT,1587418573,16.0,59,20,8.2,33.08,-16.33
Upata,VE,1587418614,30.94,40,89,3.2,8.01,-62.4
Faanui,PF,1587418615,27.72,77,91,8.74,-16.48,-151.75
Port Hedland,AU,1587418615,26.0,88,77,1.5,-20.32,118.57
Buin,CL,1587418615,29.0,24,86,2.1,-33.73,-70.75
Boyolangu,ID,1587418615,24.99,86,82,1.0,-8.12,111.89
Haines Junction,CA,1587418433,5.25,60,100,3.69,60.75,-137.51
Grand Baie,MU,1587418616,23.33,85,22,4.02,-20.02,57.58
Wajima,JP,1587418616,12.53,82,100,12.21,37.4,136.9
Galveston,US,1587418616,27.78,69,1,4.1,29.37,-94.97
Yinchuan,CN,1587418616,6.67,9,100,0.89,38.47,106.27
Krasnosel'kup,RU,1587418617,0.88,96,100,4.55,65.7,82.47
Jos,NG,1587418617,24.3,43,99,2.28,9.92,8.9
Zaozyornoye,UA,1587418617,9.02,63,0,4.61,45.16,33.28
Inhambane,MZ,1587418618,23.18,84,2,3.36,-23.86,35.38
São Luiz Gonzaga,BR,1587418618,23.58,42,0,1.88,-28.41,-54.96
San Cristobal,VE,1587418504,34.0,44,40,5.1,7.77,-72.22
Ambilobe,MG,1587418590,23.2,79,72,3.01,-13.2,49.05
Kharp,RU,1587418620,-1.63,97,90,1.92,66.8,65.81
Coquimbo,CL,1587418621,17.0,82,75,3.6,-29.95,-71.34
Saint Anthony,US,1587418621,15.0,37,75,10.3,45.02,-93.22
Arlit,NE,1587418621,32.73,9,0,3.69,18.74,7.39
Coyhaique,CL,1587418519,9.0,57,20,1.5,-45.58,-72.07
Dapdapan,PH,1587418621,25.64,89,100,1.9,11.49,122.63
Marrakesh,MA,1587418622,16.0,72,40,5.7,31.63,-8.01
Sampit,ID,1587418622,24.43,94,31,1.03,-2.53,112.95
Kichera,RU,1587418622,-9.64,80,0,3.42,55.94,110.1
Clyde River,CA,1587418622,-17.0,84,75,2.6,70.47,-68.59
Emba,KZ,1587418622,11.96,72,43,6.21,48.83,58.14
Port Blair,IN,1587418623,28.67,72,2,2.61,11.67,92.75
Bell Ville,AR,1587418623,27.22,47,0,1.68,-32.63,-62.69
Half Moon Bay,US,1587418623,18.89,71,75,5.1,37.46,-122.43
Saldanha,ZA,1587418519,17.0,77,100,1.5,-33.01,17.94
Diamantino,BR,1587418614,26.96,76,89,0.43,-14.41,-56.45
Surin,TH,1587418624,30.56,84,79,2.8,14.88,103.49
Oyem,GA,1587418624,20.22,80,53,1.18,1.6,11.58
Rocha,UY,1587418527,18.96,76,0,0.99,-34.48,-54.33
Provideniya,RU,1587418526,-7.0,73,75,5.0,64.38,-173.3
Atbasar,KZ,1587418625,15.37,45,100,3.1,51.8,68.33
Burnie,AU,1587418626,11.11,9,45,1.34,-41.07,145.92
Zaozhuang,CN,1587418626,8.77,45,56,7.4,34.86,117.55
Lugovoy,KZ,1587418626,12.78,45,0,1.72,42.95,72.76
Ngunguru,NZ,1587418626,15.56,99,100,0.45,-35.62,174.5
Ugoofaaru,MV,1587418626,29.79,70,100,3.22,5.67,73.0
Cottbus,DE,1587418627,8.33,54,0,2.68,51.77,14.33
Pokhara,NP,1587418627,17.82,35,100,0.56,28.23,83.98
Weiser,US,1587418627,23.0,18,20,2.1,44.25,-116.97
Hamilton,US,1587418416,18.89,27,20,7.2,39.18,-84.53
Homer,US,1587418628,8.0,75,90,3.1,59.64,-151.55
Naantali,FI,1587418629,5.0,75,55,2.1,60.47,22.02
Portland,US,1587418595,21.11,42,20,3.1,45.52,-122.68
Kavaratti,IN,1587418589,29.62,69,99,2.29,10.57,72.64
Buta,CD,1587418630,21.5,83,1,0.41,2.79,24.73
Piaçabuçu,BR,1587418631,26.46,79,70,3.5,-10.41,-36.43
Sovetskiy,RU,1587418631,3.63,76,100,0.86,61.36,63.58
Glendive,US,1587418384,17.0,25,75,10.3,47.11,-104.71
Salas,ES,1587418631,13.0,87,75,1.0,43.41,-6.26
Aklavik,CA,1587418632,-11.0,72,75,3.6,68.22,-135.01
Mackay,AU,1587418596,24.0,94,90,3.1,-21.15,149.2
Ortigueira,BR,1587418632,18.67,54,13,0.41,-24.21,-50.95
Lincoln,US,1587418503,21.0,21,75,7.2,40.8,-96.67
Alice Springs,AU,1587418455,22.0,43,40,4.6,-23.7,133.88
Hong Kong,HK,1587418441,26.0,78,40,2.6,22.29,114.16
Beloha,MG,1587418633,21.29,73,0,5.94,-25.17,45.05
Chongwe,ZM,1587418427,17.0,77,70,1.0,-15.33,28.68
Gīdam,IN,1587418634,25.74,56,22,1.41,18.98,81.4
General Pico,AR,1587418634,25.46,43,98,3.39,-35.66,-63.76
Cabo San Lucas,MX,1587418524,28.33,44,5,6.7,22.89,-109.91
Rawson,AR,1587418635,15.07,35,25,3.81,-43.3,-65.1
La Palma,US,1587418636,21.11,52,90,2.1,33.85,-118.05
Port Moresby,PG,1587418637,24.0,100,20,1.5,-9.44,147.18
Karpogory,RU,1587418637,-1.24,98,98,1.75,64.0,44.45
Doha,QA,1587418502,27.0,54,100,4.1,25.29,51.53
Sur,OM,1587418637,28.69,55,13,1.31,22.57,59.53
Erzin,TR,1587418390,20.0,74,51,0.1,36.96,36.2
Taitung City,TW,1587418638,24.52,65,8,1.28,22.76,121.14
Moerai,PF,1587418638,25.93,75,3,9.53,-22.43,-151.33
Buchanan,LR,1587418364,25.0,94,75,4.6,5.88,-10.05
College,US,1587418343,5.56,93,90,1.5,64.86,-147.8
Lerwick,GB,1587418438,8.0,87,0,4.1,60.15,-1.15
Oyama,JP,1587418639,13.89,93,75,0.5,36.3,139.8
Puerto Madero,MX,1587418640,33.0,52,40,4.1,14.72,-92.42
Katherine,AU,1587418640,25.0,65,36,2.1,-14.47,132.27
Lompoc,US,1587418584,18.0,63,1,7.2,34.64,-120.46
Jijiga,ET,1587418641,18.29,54,94,3.65,9.35,42.8
Srednekolymsk,RU,1587418641,-11.24,93,99,4.93,67.45,153.68
Bilibino,RU,1587418584,-15.88,87,90,1.44,68.05,166.44
Ambulu,ID,1587418642,25.49,81,100,1.41,-8.35,113.61
Avezzano,IT,1587418643,14.44,94,100,1.7,42.04,13.44
Sorong,ID,1587418643,24.61,92,100,3.74,-0.88,131.25
St. George's,GD,1587418584,29.0,74,20,6.7,12.06,-61.75
Letlhakane,BW,1587418643,17.81,32,0,3.25,-21.42,25.58
Shubarshi,KZ,1587418644,12.15,75,42,5.01,48.59,57.19
Huarmey,PE,1587418644,25.76,59,4,4.21,-10.07,-78.15
Iskateley,RU,1587418644,-2.32,97,99,7.03,67.68,53.15
Nouadhibou,MR,1587418644,21.0,60,0,5.7,20.93,-17.03
Creel,MX,1587418645,20.92,9,99,7.2,27.75,-107.63
Trofors,NO,1587418646,6.0,87,100,0.5,65.53,13.41
Pevek,RU,1587418647,-14.9,93,99,2.64,69.7,170.31
Turbat,PK,1587418647,28.95,36,1,0.96,26.0,63.04
Patitiri,GR,1587418648,13.33,92,100,9.87,39.15,23.87
Coahuayana Viejo,MX,1587418352,29.0,62,20,4.1,18.73,-103.68
Labuhan,ID,1587418649,26.13,85,55,2.29,-6.88,112.21
Xining,CN,1587418565,2.31,38,100,0.95,36.62,101.77
Kuznechnoye,RU,1587418649,5.56,92,82,2.0,61.12,29.87
Mitchell,US,1587418649,18.0,27,90,11.3,43.71,-98.03
Batabanó,CU,1587418649,32.0,49,75,6.2,22.72,-82.29
Kaitangata,NZ,1587418649,8.33,82,76,1.79,-46.28,169.85
Bahār,IR,1587418650,12.28,35,27,2.21,34.91,48.44
Nome,US,1587418650,0.0,92,90,3.1,64.5,-165.41
Rafrāf,TN,1587418650,18.0,93,40,7.2,37.19,10.18
Bilma,NE,1587418651,29.96,12,0,2.05,18.69,12.92
Santa Maria,BR,1587418651,21.98,53,0,1.04,-29.68,-53.81
Kungurtug,RU,1587418651,-1.64,52,63,0.69,50.6,97.52
Lethem,GY,1587418652,27.27,69,100,6.65,3.38,-59.8
Oyo,NG,1587418652,25.07,77,72,1.41,7.85,3.93
Kupang,ID,1587418652,24.0,94,20,1.5,-10.17,123.58
Korla,CN,1587418652,15.56,40,88,2.24,41.76,86.15
Laibin,CN,1587418652,23.51,88,48,2.31,23.7,109.27
Biltine,TD,1587418652,26.88,13,75,3.68,14.53,20.92
Bima,ID,1587418652,24.94,85,55,1.78,-8.47,118.72
Port Hardy,CA,1587418652,11.0,81,75,2.6,50.7,-127.42
Upornaya,RU,1587418653,6.23,79,100,3.84,44.39,41.02
Ola,RU,1587418653,-11.26,84,0,2.86,59.58,151.28
Grand Gaube,MU,1587418653,23.33,85,20,4.02,-20.01,57.66
Eureka,US,1587418653,12.78,71,40,3.1,40.8,-124.16
Amapá,BR,1587418653,23.49,93,100,1.41,1.0,-52.0
Zeya,RU,1587418653,-5.47,90,100,6.49,53.75,127.27
Chicama,PE,1587418509,21.0,88,20,5.7,-7.84,-79.15
Williston,US,1587418652,15.0,30,1,11.3,48.15,-103.62
Aswān,EG,1587418654,24.99,23,6,3.71,24.09,32.91
Honningsvåg,NO,1587418655,4.0,69,40,11.3,70.98,25.97
Torbat-e Jām,IR,1587418655,17.11,34,21,0.42,35.24,60.62
Guaíra,BR,1587418655,22.3,70,21,2.0,-20.32,-48.31
Acapulco de Juárez,MX,1587418656,28.0,74,5,4.6,16.86,-99.89
Fortuna,US,1587418656,12.78,87,75,3.1,40.6,-124.16
Vostok,RU,1587418656,-1.04,77,100,1.85,46.49,135.88
Grevesmühlen,DE,1587418657,8.33,59,0,4.02,53.87,11.18
Praia,CV,1587418657,22.0,73,20,8.2,14.92,-23.51
Beşikdüzü,TR,1587418657,13.0,82,75,4.6,41.05,39.23
Kaeo,NZ,1587418548,15.56,95,100,2.78,-35.1,173.78
Illela,NG,1587418659,32.2,32,50,3.84,13.73,5.3
Bambous Virieux,MU,1587418550,24.0,88,75,5.7,-20.34,57.76
Kutum,SD,1587418660,20.9,14,65,2.3,14.2,24.67
Sawākin,SD,1587418661,25.02,58,0,1.04,19.11,37.33
Masterton,NZ,1587418661,15.0,84,100,0.56,-40.96,175.66
Kruisfontein,ZA,1587418534,16.96,74,98,6.71,-34.0,24.73
Bathsheba,BB,1587418399,25.0,83,75,5.7,13.22,-59.52
Gemeente Terneuzen,NL,1587418662,14.0,41,0,9.3,51.28,3.84
Provost,CA,1587418662,4.48,73,100,2.9,52.35,-110.27
Omboué,GA,1587418662,24.96,86,100,5.19,-1.57,9.26
Eirunepé,BR,1587418662,30.54,53,78,1.59,-6.66,-69.87
Popondetta,PG,1587418663,25.33,78,28,1.53,-8.75,148.25
Robertsport,LR,1587418663,27.3,82,37,1.77,6.75,-11.37
Horishni Plavni,UA,1587418663,5.52,63,3,3.55,49.01,33.65
Samarai,PG,1587418582,27.02,80,100,3.38,-10.62,150.67
Juba,SS,1587418664,25.18,52,35,2.43,4.85,31.58
Nanton,CA,1587418664,18.33,25,13,1.34,50.35,-113.77
Mayumba,GA,1587418664,25.72,85,97,6.65,-3.43,10.66
Beira,MZ,1587418578,23.0,83,20,2.6,-19.84,34.84
Khandyga,RU,1587418665,-13.15,90,98,0.65,62.67,135.6
Poum,NC,1587418555,25.17,82,24,7.45,-20.23,164.02
High Rock,BS,1587418665,29.0,83,75,8.7,26.62,-78.28
Necochea,AR,1587418666,16.11,78,100,5.36,-38.55,-58.74
Okakarara,NA,1587418667,19.35,26,67,2.88,-20.58,17.43
Patea,NZ,1587418667,14.44,98,100,2.99,-39.76,174.48
Moranbah,AU,1587418667,20.59,87,0,4.02,-22.0,148.05
Praia da Vitória,PT,1587418668,15.0,67,20,5.03,38.73,-27.07
Ancud,CL,1587418668,12.0,66,52,2.1,-41.87,-73.82
Mago,RU,1587418669,-4.45,95,100,7.7,53.25,140.18
Teya,RU,1587418669,-0.67,87,38,1.28,60.38,92.63
Zvishavane,ZW,1587418670,14.05,51,0,0.22,-20.33,30.07
Salt Lake City,US,1587418638,19.0,29,40,3.6,40.76,-111.89
Olafsvik,IS,1587418671,7.49,89,100,7.9,64.89,-23.71
Nizhniy Kuranakh,RU,1587418671,-11.33,90,46,1.32,58.84,125.49
Maniitsoq,GL,1587418671,-0.5,87,39,2.74,65.42,-52.9
Urusha,RU,1587418672,-6.99,76,100,6.29,54.05,122.9
Madarounfa,NE,1587418672,31.63,25,93,3.19,13.31,7.16
Brae,GB,1587418672,5.0,86,0,5.1,60.4,-1.35
Romanu,RO,1587418673,8.0,39,75,4.1,45.28,27.73
Kirakira,SB,1587418673,27.64,76,44,0.97,-10.45,161.92
Rāyadrug,IN,1587418673,26.77,32,57,2.99,14.7,76.87
Conceição da Barra,BR,1587418673,24.04,80,14,5.95,-18.59,-39.73
Saint George,US,1587418674,23.89,28,1,2.59,37.1,-113.58
Artigas,UY,1587418674,24.08,45,0,0.4,-30.4,-56.47
Manaure,CO,1587418674,30.0,70,20,6.2,11.78,-72.44
Masaka,UG,1587418675,18.53,62,100,1.13,-0.33,31.73
Shushenskoye,RU,1587418675,2.0,59,73,0.43,53.33,91.94
Dingle,PH,1587418676,26.5,82,97,2.96,11.0,122.67
Aykhal,RU,1587418677,-6.69,82,0,2.68,66.0,111.5
Longyearbyen,SJ,1587418677,-6.0,62,20,13.9,78.22,15.64
Achutupo,PA,1587418677,29.42,71,27,3.86,9.2,-77.98
Mitú,CO,1587418655,29.08,60,32,1.0,1.2,-70.17
Chandla,IN,1587418678,29.05,23,83,2.97,25.08,80.2
Nanortalik,GL,1587418679,-0.07,88,76,3.09,60.14,-45.24
Qaqortoq,GL,1587418680,3.0,37,54,1.0,60.72,-46.03
Rudnogorsk,RU,1587418680,-6.71,92,0,0.63,57.26,103.75
Winnemucca,US,1587418384,19.0,20,40,2.1,40.97,-117.74
Sarāhan,IN,1587418681,6.53,27,95,2.12,31.52,77.8
Bakel,SN,1587418682,33.96,14,3,5.05,14.9,-12.46
San Vicente,AR,1587418682,21.53,45,0,0.72,-26.62,-54.13
Cidreira,BR,1587418532,20.78,81,0,4.5,-30.18,-50.21
Bandarbeyla,SO,1587418683,27.97,78,99,5.55,9.49,50.81
Constitución,CL,1587418683,19.24,46,74,7.07,-35.33,-72.42
Xuanzhou,CN,1587418684,11.12,92,100,5.23,30.95,118.76
Meulaboh,ID,1587418685,26.3,85,51,2.33,4.14,96.13
Ha Giang,VN,1587418685,25.79,80,89,1.01,22.83,104.98
Salamiyah,SY,1587418686,18.63,52,7,0.78,35.01,37.05
Hobyo,SO,1587418686,29.18,73,98,5.46,5.35,48.53
Nago,JP,1587418687,19.0,88,90,2.6,26.59,127.98
Kaili,ID,1587418687,21.76,64,75,0.83,-3.46,120.21
Emerald,AU,1587418688,18.0,42,0,3.6,-23.53,148.17
Nizwá,OM,1587418689,27.95,29,65,0.76,22.93,57.53
The Valley,AI,1587418689,29.0,54,20,6.7,18.22,-63.06
Darhan,MN,1587418689,-3.1,64,0,1.72,49.49,105.92
Valença,BR,1587418650,23.91,91,26,2.38,-13.37,-39.07
Cockburn Town,TC,1587418510,26.48,81,0,6.7,21.46,-71.14
Mathathane,BW,1587418690,17.97,38,0,3.03,-22.27,28.75
Leh,IN,1587418691,0.68,18,99,0.21,34.17,77.58
Bara,NG,1587418691,32.31,24,97,2.71,10.37,10.73
Soyo,AO,1587418692,26.71,86,54,3.88,-6.13,12.37
Batagay,RU,1587418692,-10.51,91,100,1.31,67.63,134.63
Taltal,CL,1587418692,21.41,59,1,1.69,-25.4,-70.48
Joshīmath,IN,1587418693,6.67,25,88,2.34,30.57,79.57
Horasan,TR,1587418693,8.34,45,100,1.19,40.05,42.17
Pilar,BR,1587418694,27.0,78,72,3.1,-9.6,-35.96
Aitape,PG,1587418694,26.1,80,100,1.95,-3.14,142.35
Tiarei,PF,1587418694,31.0,58,73,1.5,-17.53,-149.33
Mehamn,NO,1587418695,4.0,64,75,12.9,71.04,27.85
Faya,SA,1587418695,16.0,67,62,2.6,18.39,42.45
Havøysund,NO,1587418696,4.0,69,40,11.3,71.0,24.66
Husavik,IS,1587418696,6.33,77,31,5.46,66.04,-17.34
Sarankhola,BD,1587418696,25.79,89,100,2.47,22.31,89.79
Glenwood Springs,US,1587418697,17.0,59,75,2.6,39.55,-107.32
Vigevano,IT,1587418697,12.22,98,100,0.89,45.31,8.86
Caniço,PT,1587418698,17.0,51,20,3.6,32.63,-16.85
Madimba,TZ,1587418699,25.0,94,40,3.1,-10.4,40.33
Pimentel,PE,1587418699,23.06,75,4,6.41,-6.84,-79.93
Kyzyl-Suu,KG,1587418701,6.19,30,3,1.51,42.34,78.0
Lillooet,CA,1587418702,20.0,37,1,10.3,50.69,-121.94
Baruun-Urt,MN,1587418702,-7.26,69,0,6.06,46.68,113.28
Puerto Escondido,MX,1587418702,29.0,70,20,5.1,15.85,-97.07
Batticaloa,LK,1587418703,27.41,79,34,1.58,7.71,81.69
Changji,CN,1587418703,15.0,44,9,4.0,44.02,87.32
At-Bashi,KG,1587418703,6.71,29,13,0.8,41.17,75.81
Hojāi,IN,1587418704,21.72,75,85,1.37,26.0,92.87
Kozhva,RU,1587418704,0.92,91,94,2.83,65.11,57.05
Yenagoa,NG,1587418573,25.64,89,6,2.04,4.92,6.26
Grand Falls,CA,1587418705,3.0,27,1,4.1,47.05,-67.74
Rāzole,IN,1587418706,25.05,89,28,1.39,16.48,81.83
São Miguel do Araguaia,BR,1587418707,24.8,80,40,0.89,-13.28,-50.16
Palamós,ES,1587418707,15.0,94,100,1.79,41.85,3.13
Sīrjān,IR,1587418708,16.85,39,99,3.07,29.45,55.68
Mezen',RU,1587418708,-0.01,98,100,2.4,65.85,44.24
Turan,VN,1587418708,26.0,88,40,1.0,16.07,108.22
Monte Patria,CL,1587418709,26.24,33,94,2.39,-30.69,-70.95
Skjervøy,NO,1587418566,2.57,95,100,8.93,70.03,20.97
Laredo,US,1587418709,37.0,25,1,3.6,27.51,-99.51
San Jerónimo,PE,1587418709,14.34,21,59,3.12,-11.95,-75.28
Padang,ID,1587418533,25.76,74,42,2.0,-0.95,100.35
Mangan,IN,1587418710,17.23,35,65,2.39,27.52,88.53
Puducherry,IN,1587418710,27.33,77,11,1.89,11.93,79.83
Potsdam,DE,1587418710,11.67,43,0,3.1,52.4,13.07
Elbistan,TR,1587418711,13.11,37,66,1.8,38.21,37.2
Santiago del Estero,AR,1587418711,29.74,34,0,2.74,-27.8,-64.26
Kālāvad,IN,1587418711,27.78,87,0,3.56,22.22,70.38
Sakakah,SA,1587418712,23.0,38,40,2.6,29.97,40.21
Merauke,ID,1587418713,25.64,89,100,3.54,-8.47,140.33
Henties Bay,NA,1587418716,16.67,88,85,1.79,-22.12,14.28
Toora-Khem,RU,1587418716,0.14,57,91,1.16,52.47,96.11
Yangi Marg`ilon,UZ,1587418717,16.0,48,1,3.1,40.43,71.72
Unity,CA,1587418717,3.58,74,99,2.73,52.45,-109.17
Vestmannaeyjar,IS,1587418717,8.43,90,97,12.55,63.44,-20.27
Kadoshkino,RU,1587418718,4.55,85,100,6.78,54.03,44.42
Pitimbu,BR,1587418718,26.0,88,40,3.1,-7.47,-34.81
Xiongyue,CN,1587418718,4.3,59,0,11.1,40.18,122.12
Banepā,NP,1587418719,15.0,77,75,1.0,27.63,85.52
Baharly,TM,1587418719,23.05,28,0,3.53,38.44,57.43
Tessalit,ML,1587418720,29.72,18,0,5.06,20.2,1.01
Guaratinga,BR,1587418720,25.0,78,40,3.1,-16.57,-39.57
Saint-Pierre,RE,1587418551,23.0,69,76,4.6,-21.34,55.48
Salalah,OM,1587418720,28.0,74,40,2.6,17.02,54.09
Namatanai,PG,1587418583,28.02,73,61,1.95,-3.67,152.43
Rome,US,1587418684,9.44,39,1,3.6,43.21,-75.46
Krasnovishersk,RU,1587418721,-0.47,93,61,0.84,60.41,57.08
Yumen,CN,1587418722,6.08,24,100,3.46,40.28,97.2
Naustdal,NO,1587418722,7.0,81,6,1.95,61.51,5.72
Dubrovytsya,UA,1587418722,2.52,75,3,2.24,51.57,26.57
Hervey Bay,AU,1587418723,18.33,83,5,2.68,-25.3,152.85
Petropavlovsk-Kamchatskiy,RU,1587418723,0.0,89,81,3.0,53.05,158.65
Trebinje,BA,1587418622,17.0,63,90,3.6,42.71,18.34
Semey,KZ,1587418723,12.82,42,0,4.11,50.41,80.23
Kloulklubed,PW,1587418724,25.0,94,90,4.1,7.04,134.26
Bogale,MM,1587418724,23.57,94,0,2.98,16.28,95.4
Comodoro Rivadavia,AR,1587418660,16.0,38,20,3.1,-45.87,-67.5
Grindavik,IS,1587418724,8.26,90,100,12.4,63.84,-22.43
